City_ID,City,Lat,Lng,Max Temp,Humidity,Cloudiness,Wind Speed,Country,Date
0,new norfolk,-42.7826,147.0587,10.720000000000027,63,99,0.45,AU,1670264953
1,fortuna,40.5982,-124.1573,9.400000000000034,93,75,5.66,US,1670264954
2,georgetown,5.4112,100.3354,27.910000000000025,86,40,0.51,MY,1670264694
3,vanavara,60.34,102.2797,-11.589999999999975,86,100,6.38,RU,1670264696
4,atuona,-9.8,-139.0333,24.910000000000025,78,82,7.36,PF,1670264959
5,broome,42.2506,-75.833,7.480000000000018,38,0,4.92,US,1670264960
6,east london,-33.0153,27.9116,16.52000000000004,82,0,3.09,ZA,1670264961
7,nishihara,26.1842,127.7558,18.600000000000023,94,75,10.8,JP,1670264961
8,bluff,-46.6,168.3333,10.450000000000045,87,100,3.25,NZ,1670264962
9,barcelos,41.5388,-8.6151,13.080000000000041,84,100,2.46,PT,1670264684
10,bengkulu,-3.8004,102.2655,23.689999999999998,91,100,1.46,ID,1670264964
11,victoria,22.2855,114.1577,16.29000000000002,67,22,6.71,HK,1670264961
12,bredasdorp,-34.5322,20.0403,16.25,62,50,2.58,ZA,1670264968
13,jamestown,42.097,-79.2353,6.800000000000011,29,0,5.14,US,1670264971
14,albany,42.6001,-73.9662,7.189999999999998,49,44,1.34,US,1670264888
15,buraydah,26.326,43.975,18.25,63,97,6.74,SA,1670264972
16,vostochnyy,55.8167,37.8667,-8.899999999999977,90,99,2.78,RU,1670264972
17,iisalmi,63.5592,27.1907,-3.8999999999999773,94,100,4.63,FI,1670264931
18,punta arenas,-53.15,-70.9167,10.010000000000048,57,75,9.26,CL,1670264909
19,cherskiy,68.75,161.3,-31.68999999999997,95,56,1.77,RU,1670264973
20,hilo,19.7297,-155.09,25.710000000000036,77,40,3.09,US,1670264857
21,tasiilaq,65.6145,-37.6368,-1.9099999999999682,65,96,2.7,GL,1670264974
22,cidreira,-30.1811,-50.2056,23.920000000000016,79,83,5.32,BR,1670264975
23,yellowknife,62.456,-114.3525,-31.359999999999985,68,20,3.6,CA,1670264882
24,krasnoselkup,65.7,82.4667,-3.42999999999995,93,100,7.08,RU,1670264976
25,rikitea,-23.1203,-134.9692,23.970000000000027,81,83,5.81,PF,1670264977
26,yar-sale,66.8333,70.8333,-15.509999999999991,95,21,3.29,RU,1670264977
27,mataura,-46.1927,168.8643,10.270000000000039,100,100,1.35,NZ,1670264978
28,saint-philippe,-21.3585,55.7679,24.77000000000004,80,81,5.07,RE,1670264978
29,xinyu,27.8043,114.9334,6.010000000000048,88,100,1.32,CN,1670264979
30,ushuaia,-54.8,-68.3,10.79000000000002,49,75,11.83,AR,1670264979
31,ilulissat,69.2167,-51.1,3.0100000000000477,48,40,6.17,GL,1670264980
32,tuktoyaktuk,69.4541,-133.0374,-26.99999999999997,69,40,11.32,CA,1670264980
33,cody,44.5263,-109.0565,1.4700000000000273,69,20,2.06,US,1670264833
34,cayenne,4.9333,-52.3333,30.02000000000004,70,75,5.14,GF,1670264981
35,upernavik,72.7868,-56.1549,-1.259999999999991,81,100,5.47,GL,1670264982
36,wajir,1.7471,40.0573,28.980000000000018,61,0,0.0,KE,1670264982
37,pozo colorado,-23.4923,-58.7972,37.58000000000004,24,41,3.06,PY,1670264983
38,paamiut,61.994,-49.6678,2.6100000000000136,77,97,14.49,GL,1670264983
39,severo-kurilsk,50.6789,156.125,-5.009999999999991,62,100,12.2,RU,1670264984
40,ilo,-17.6394,-71.3375,22.480000000000018,60,40,3.6,PE,1670264984
41,la poza,20.1167,-96.9667,26.74000000000001,67,5,1.97,MX,1670264985
42,perbaungan,3.5679,98.956,25.060000000000002,91,100,1.98,ID,1670264985
43,saskylakh,71.9167,114.0833,-27.559999999999974,96,100,6.64,RU,1670264986
44,cape town,-33.9258,18.4232,18.400000000000034,61,0,6.17,ZA,1670264217
45,kapaa,22.0752,-159.319,22.879999999999995,89,75,2.06,US,1670264987
46,port lincoln,-34.7333,135.8667,14.640000000000043,72,100,7.15,AU,1670264987
47,miri,4.4148,114.0089,26.200000000000045,94,40,0.0,MY,1670264988
48,sao gabriel da cachoeira,-0.1303,-67.0892,31.890000000000043,62,40,2.06,BR,1670264988
49,rundu,-17.9333,19.7667,26.420000000000016,36,52,0.27,NA,1670264989
50,saldanha,-33.0117,17.9442,18.03000000000003,74,91,6.91,ZA,1670264989
51,castro,-24.7911,-50.0119,23.560000000000002,78,92,2.63,BR,1670264990
52,amahai,-3.3333,128.9167,25.950000000000045,83,90,1.01,ID,1670264990
53,bodden town,19.2833,-81.25,28.890000000000043,67,11,4.47,KY,1670264991
54,ponta do sol,32.6667,-17.1,19.450000000000045,75,93,2.9,PT,1670264992
55,puerto del rosario,28.5004,-13.8627,21.860000000000014,68,40,3.09,ES,1670264993
56,barela,23.1,80.05,15.720000000000027,54,0,1.68,IN,1670264993
57,teguldet,57.3064,88.1667,-19.71999999999997,98,88,2.35,RU,1670264994
58,mehamn,71.0357,27.8492,-2.0299999999999727,93,100,4.63,NO,1670264994
59,shelburne,44.0787,-80.2041,4.25,51,96,7.57,CA,1670264995
60,avarua,-21.2078,-159.775,23.03000000000003,94,100,3.6,CK,1670264996
61,margate,51.3813,1.3862,7.610000000000014,86,100,1.34,GB,1670264996
62,bathsheba,13.2167,-59.5167,29.340000000000032,79,75,2.06,BB,1670264997
63,hermanus,-34.4187,19.2345,17.110000000000014,62,50,2.14,ZA,1670264997
64,pevek,69.7008,170.3133,-30.539999999999964,88,25,2.04,RU,1670264998
65,viedma,-40.8135,-62.9967,36.33000000000004,18,5,10.68,AR,1670264998
66,libreville,0.3925,9.4537,27.0,81,69,2.45,GA,1670264999
67,bonthe,7.5264,-12.505,26.710000000000036,81,89,2.75,SL,1670264999
68,lagoa,39.05,-27.9833,15.860000000000014,73,62,5.77,PT,1670265000
69,eten,-6.9081,-79.8642,25.140000000000043,53,0,8.75,PE,1670265001
70,ahipara,-35.1667,173.1667,16.29000000000002,84,100,2.08,NZ,1670265001
71,la rioja,42.25,-2.5,0.8799999999999955,91,100,1.71,ES,1670265011
72,torbay,47.6666,-52.7314,5.160000000000025,95,100,4.12,CA,1670265015
73,santa rosa,14.3122,121.1114,26.160000000000025,88,99,3.29,PH,1670264785
74,busselton,-33.65,115.3333,13.25,84,1,6.01,AU,1670265018
75,butaritari,3.0707,172.7902,27.08000000000004,81,100,7.19,KI,1670265020
76,mar del plata,-38.0023,-57.5575,33.79000000000002,81,0,7.15,AR,1670265024
77,maragogi,-9.0122,-35.2225,26.05000000000001,81,86,5.21,BR,1670265034
78,beaverlodge,55.2166,-119.4361,-14.359999999999957,91,100,2.7,CA,1670265035
79,vaini,-21.2,-175.2,24.090000000000032,94,75,2.06,TO,1670265035
80,dikson,73.5069,80.5464,-3.849999999999966,95,100,6.74,RU,1670265036
81,rypefjord,70.6333,23.6667,2.2600000000000477,100,75,4.63,NO,1670265037
82,thompson,55.7435,-97.8558,-28.909999999999968,63,20,3.6,CA,1670264798
83,port alfred,-33.5906,26.891,15.660000000000025,90,0,0.89,ZA,1670265037
84,lompoc,34.6391,-120.4579,15.850000000000023,81,20,1.54,US,1670264858
85,talnakh,69.4865,88.3972,-3.769999999999982,96,100,6.12,RU,1670265038
86,norman wells,65.282,-126.8329,-29.97999999999999,76,75,4.12,CA,1670265039
87,lebu,-37.6167,-73.65,17.439999999999998,67,3,2.88,CL,1670265040
88,hamilton,39.1834,-84.5333,9.800000000000011,53,40,3.09,US,1670264758
89,ketchikan,55.3422,-131.6461,-1.7399999999999523,93,20,0.0,US,1670265040
90,husavik,66.0449,-17.3389,-0.3199999999999932,81,83,4.77,IS,1670265041
91,chirongui,-12.9319,45.1483,23.960000000000036,78,6,4.46,YT,1670265042
92,ancud,-41.8697,-73.8203,13.230000000000018,94,100,8.88,CL,1670265042
93,hlukhiv,51.6782,33.9162,-7.139999999999986,61,87,4.52,UA,1670265043
94,haines junction,60.7522,-137.5108,-13.42999999999995,98,92,0.91,CA,1670265043
95,honiara,-9.4333,159.95,24.54000000000002,87,100,1.41,SB,1670265044
96,kruisfontein,-34.0033,24.7314,16.600000000000023,85,1,3.81,ZA,1670265044
97,mudgal,16.0167,76.4333,21.57000000000005,52,81,3.95,IN,1670265045
98,carnarvon,-24.8667,113.6333,20.629999999999995,77,50,7.59,AU,1670265046
99,turukhansk,65.8167,87.9833,-4.089999999999975,96,100,6.06,RU,1670265046
100,hobyo,5.3505,48.5268,26.890000000000043,78,100,7.32,SO,1670265047
101,aklavik,68.2191,-135.0107,-25.409999999999968,87,100,10.12,CA,1670265047
102,norilsk,69.3535,88.2027,-3.6499999999999773,96,100,7.15,RU,1670265048
103,yenagoa,4.9247,6.2642,26.920000000000016,81,58,3.21,NG,1670265048
104,ribeira grande,38.5167,-28.7,17.220000000000027,67,20,11.18,PT,1670265049
105,severnyy,50.677,36.5532,-9.979999999999961,79,0,3.0,RU,1670265050
106,impfondo,1.6381,18.0667,23.590000000000032,83,100,0.35,CG,1670265051
107,grindavik,63.8424,-22.4338,-2.0299999999999727,100,20,1.54,IS,1670265052
108,oudtshoorn,-33.5907,22.2014,16.200000000000045,71,51,2.95,ZA,1670265053
109,kichera,55.9375,110.0997,-13.67999999999995,86,100,2.64,RU,1670265053
110,glendive,47.1053,-104.7125,-5.839999999999975,76,100,3.09,US,1670265054
111,douala,4.0483,9.7043,26.75,82,39,3.19,CM,1670265055
112,estelle,29.8458,-90.1067,25.0,75,75,5.66,US,1670265056
113,benjamin aceval,-24.9667,-57.5667,34.22000000000003,30,15,1.0,PY,1670265056
114,port elizabeth,-33.918,25.5701,17.83000000000004,91,20,6.26,ZA,1670265057
115,zhangjiakou,40.81,114.8794,-9.279999999999973,32,0,1.85,CN,1670265058
116,hobart,-42.8794,147.3294,10.920000000000016,72,75,7.2,AU,1670265058
117,tilichiki,60.4667,166.1,-11.609999999999957,78,100,4.88,RU,1670265059
118,vallenar,-28.5708,-70.7581,29.420000000000016,32,0,5.02,CL,1670265059
119,atlantic beach,30.3344,-81.3987,24.060000000000002,70,75,3.09,US,1670265060
120,anicuns,-16.4611,-49.9617,27.100000000000023,56,100,2.57,BR,1670265061
121,winnemucca,40.973,-117.7357,1.0300000000000296,80,40,5.14,US,1670265061
122,ogembo,-0.7984,34.7253,16.80000000000001,71,100,1.34,KE,1670265079
123,santa cruz,-17.8,-63.1667,37.03000000000003,34,40,4.12,BO,1670264905
124,hualmay,-11.0964,-77.6139,21.939999999999998,71,12,3.88,PE,1670265084
125,vila franca do campo,37.7167,-25.4333,17.33000000000004,78,76,5.51,PT,1670265089
126,bauchi,10.5,10.0,21.140000000000043,19,2,1.7,NG,1670265091
127,te anau,-45.4167,167.7167,10.150000000000034,97,100,0.81,NZ,1670265092
128,phan thiet,10.9333,108.1,24.05000000000001,89,100,2.33,VN,1670265093
129,astolfo dutra,-21.3153,-42.8622,23.53000000000003,87,100,0.83,BR,1670265093
130,bambous virieux,-20.3428,57.7575,25.140000000000043,73,40,4.63,MU,1670265094
131,ouadda,8.0777,22.4007,24.660000000000025,31,13,2.7,CF,1670265094
132,muros,42.7762,-9.0603,12.830000000000041,83,89,2.27,ES,1670264907
133,narsaq,60.9167,-46.05,-4.2099999999999795,71,60,4.54,GL,1670265095
134,tuatapere,-46.1333,167.6833,8.470000000000027,95,100,2.53,NZ,1670265096
135,comandau,45.7667,26.2667,-2.849999999999966,95,100,2.2,RO,1670265096
136,almirante tamandare,-25.3247,-49.31,25.82000000000005,65,75,3.09,BR,1670265097
137,paciran,-6.8767,112.3761,26.590000000000032,79,100,1.0,ID,1670265097
138,sanmenxia,34.7747,111.1814,2.920000000000016,53,50,0.42,CN,1670265098
139,oranjemund,-28.55,16.4333,16.0,80,32,7.16,NA,1670265098
140,buala,-8.145,159.5921,26.460000000000036,83,100,2.81,SB,1670265099
141,roma,43.2128,-75.4557,8.79000000000002,35,0,6.17,US,1670265100
142,airai,-8.9266,125.4092,15.07000000000005,72,100,0.65,TL,1670265100
143,isla vista,34.4133,-119.861,17.660000000000025,61,0,2.57,US,1670265101
144,barrow,71.2906,-156.7887,3.0100000000000477,70,0,14.4,US,1670265101
145,leshukonskoye,64.8989,45.7622,-8.539999999999964,93,100,3.78,RU,1670265102
146,sur,22.5667,59.5289,23.370000000000005,61,0,1.22,OM,1670265103
147,kavieng,-2.5744,150.7967,26.610000000000014,81,100,2.04,PG,1670265104
148,polaniec,50.4332,21.2812,3.2800000000000296,93,99,0.45,PL,1670265104
149,panzhihua,26.5851,101.7128,8.520000000000039,72,0,0.79,CN,1670265105
150,verkhnyaya inta,65.9811,60.3094,-16.649999999999977,98,99,2.61,RU,1670265105
151,catuday,16.2923,119.8062,25.58000000000004,80,100,3.65,PH,1670265107
152,gobabis,-22.45,18.9667,26.77000000000004,22,76,3.04,NA,1670265107
153,bandarbeyla,9.4942,50.8122,25.590000000000032,75,24,8.95,SO,1670265108
154,pueblo,38.2545,-104.6091,17.970000000000027,25,0,9.26,US,1670265108
155,emerald,-23.5333,148.1667,22.430000000000007,58,1,2.84,AU,1670264916
156,hami,42.8,93.45,-4.8700000000000045,33,100,0.24,CN,1670265109
157,florianopolis,-27.6146,-48.5012,24.670000000000016,82,75,6.17,BR,1670265110
158,mareeba,-17.0,145.4333,18.58000000000004,91,4,1.01,AU,1670265111
159,sao jose da coroa grande,-8.8978,-35.1478,26.140000000000043,80,65,5.49,BR,1670265111
160,half moon bay,37.4636,-122.4286,14.78000000000003,86,0,4.12,US,1670265112
161,ikom,5.9667,8.7063,29.07000000000005,38,47,1.1,NG,1670265113
162,kenai,60.5544,-151.2583,-3.25,93,100,4.63,US,1670265113
163,yermakovskoye,53.2831,92.4003,-25.399999999999977,98,6,0.27,RU,1670265114
164,gizo,-8.103,156.8419,27.439999999999998,74,100,1.6,SB,1670265114
165,alexandria,31.2156,29.9553,19.480000000000018,62,59,5.15,EG,1670264867
166,caiaponia,-16.9567,-51.8103,29.24000000000001,44,95,4.57,BR,1670265115
167,keta,5.9179,0.9879,27.850000000000023,78,31,4.88,GH,1670265115
168,oranjestad,12.524,-70.027,28.970000000000027,67,20,4.63,AW,1670265117
169,hamakita,34.8,137.7833,9.350000000000023,79,100,1.94,JP,1670265117
170,lalibela,12.0333,39.0333,14.480000000000018,41,10,3.33,ET,1670265118
171,raudeberg,61.9875,5.1352,3.3100000000000023,1,95,8.73,NO,1670265118
172,sabadell,41.5433,2.1094,12.270000000000039,78,20,0.89,ES,1670265119
173,oktyabrskiy,54.4815,53.471,-20.73999999999998,100,97,0.92,RU,1670265120
174,bagdarin,54.4333,113.6,-19.21999999999997,88,100,2.36,RU,1670265120
175,simnas,54.4,23.65,-3.109999999999957,93,100,4.9,LT,1670265121
176,port blair,11.6667,92.75,27.120000000000005,83,100,8.79,IN,1670265124
177,vesele,47.0148,34.915,-3.909999999999968,67,20,6.3,UA,1670265126
178,laguna,38.421,-121.4238,13.970000000000027,86,20,5.14,US,1670265131
179,esperance,-33.8667,121.9,15.689999999999998,83,100,2.04,AU,1670265134
180,eirunepe,-6.6603,-69.8736,30.260000000000048,61,87,1.18,BR,1670265136
181,batemans bay,-35.7167,150.1833,13.689999999999998,91,19,2.54,AU,1670265145
182,esna,25.2934,32.554,20.010000000000048,48,0,7.6,EG,1670265146
183,hithadhoo,-0.6,73.0833,27.5,75,100,3.41,MV,1670265148
184,san patricio,28.017,-97.5169,26.920000000000016,58,96,6.94,US,1670265150
185,oksfjord,70.2396,22.3479,2.1000000000000227,99,100,2.68,NO,1670265151
186,beitbridge,-22.2167,30.0,27.28000000000003,49,44,13.7,ZW,1670265152
187,qaanaaq,77.484,-69.3632,-1.849999999999966,88,100,6.88,GL,1670265153
188,svetlogorsk,52.6333,29.7333,-10.079999999999984,87,84,3.85,BY,1670265153
189,kangaatsiaq,68.3065,-53.4641,-4.439999999999998,82,100,6.28,GL,1670265154
190,port hardy,50.6996,-127.4199,0.10000000000002274,100,75,1.54,CA,1670265049
191,kahului,20.8947,-156.47,24.910000000000025,76,20,4.47,US,1670265155
192,murgab,37.4966,61.9714,-0.06999999999999318,69,100,3.09,TM,1670265155
193,faanui,-16.4833,-151.75,26.32000000000005,78,100,8.11,PF,1670265156
194,bethel,41.3712,-73.414,8.340000000000032,44,0,4.63,US,1670265156
195,jardim,-21.4803,-56.1381,29.79000000000002,62,51,1.89,BR,1670265157
196,broken hill,-31.95,141.4333,15.980000000000018,47,96,5.38,AU,1670265157
197,hasaki,35.7333,140.8333,5.220000000000027,86,100,11.07,JP,1670265158
198,poum,-20.2333,164.0167,26.210000000000036,84,100,4.64,NC,1670265158
199,berlevag,70.8578,29.0864,-2.0,80,100,7.2,NO,1670265159
200,yulara,-25.2406,130.9889,27.02000000000004,16,11,3.1,AU,1670265160
201,chokurdakh,70.6333,147.9167,-36.819999999999965,99,51,3.86,RU,1670265160
202,coihaique,-45.5752,-72.0662,14.340000000000032,82,100,2.06,CL,1670265161
203,wangkui,46.8333,126.5,-18.079999999999984,92,6,4.25,CN,1670265162
204,muyezerskiy,63.9333,31.65,-5.239999999999952,90,100,6.67,RU,1670265162
205,providencia,28.7167,-111.5833,23.920000000000016,62,57,2.89,MX,1670265163
206,grand gaube,-20.0064,57.6608,25.220000000000027,67,11,1.34,MU,1670265163
207,ponta delgada,37.7333,-25.6667,16.950000000000045,82,75,7.72,PT,1670265164
208,iqaluit,63.7506,-68.5145,-12.149999999999977,78,75,2.06,CA,1670265013
209,sao filipe,14.8961,-24.4956,22.610000000000014,68,34,3.18,CV,1670265165
210,adrar,20.5022,-10.0711,25.08000000000004,23,7,0.84,MR,1670265165
211,marystown,47.1666,-55.1483,3.6100000000000136,75,97,3.89,CA,1670265166
212,constitucion,-35.3333,-72.4167,19.890000000000043,57,7,7.62,CL,1670265166
213,souillac,-20.5167,57.5167,25.210000000000036,73,40,4.63,MU,1670265167
214,korla,41.7597,86.1469,-5.599999999999966,41,35,0.93,CN,1670265167
215,binzhou,37.3667,118.0167,-2.4899999999999523,39,0,0.74,CN,1670265168
216,gerash,27.6652,54.1371,16.08000000000004,48,18,1.47,IR,1670265169
217,nantucket,41.2835,-70.0995,10.080000000000041,63,0,4.63,US,1670265169
218,mana,5.6592,-53.7767,28.32000000000005,67,100,3.54,GF,1670265170
219,sitka,57.0531,-135.33,0.9399999999999977,80,75,2.06,US,1670265170
220,garden city,42.3256,-83.331,7.0,40,75,8.75,US,1670265171
221,guardiagrele,42.1954,14.2198,12.100000000000023,58,1,3.02,IT,1670265172
222,waipawa,-41.4122,175.5153,14.410000000000025,67,0,6.5,NZ,1670265173
223,tiksi,71.6872,128.8694,-24.97999999999999,95,100,5.03,RU,1670265173
224,pahalgam,34.0333,75.3333,-1.42999999999995,53,100,3.76,IN,1670265174
225,nsanje,-16.92,35.262,29.340000000000032,51,60,1.3,MW,1670265174
226,jacareacanga,-6.2222,-57.7528,27.010000000000048,88,100,1.54,BR,1670265175
227,deputatskiy,69.3,139.9,-31.369999999999976,96,100,1.86,RU,1670265175
228,valga,57.7778,26.0473,-6.669999999999959,90,100,0.45,EE,1670265176
229,saint george,37.1041,-113.5841,11.910000000000025,66,40,0.45,US,1670264974
230,alofi,-19.0595,-169.9187,24.939999999999998,94,80,0.51,NU,1670265177
231,kimbe,-5.5502,150.1429,23.78000000000003,93,96,1.54,PG,1670265177
232,verkh-usugli,52.7,115.1667,-11.759999999999991,67,100,5.59,RU,1670265178
233,camana,-16.6228,-72.7111,22.140000000000043,71,51,3.72,PE,1670265178
234,hasilpur,29.7122,72.5553,15.879999999999995,26,4,1.22,PK,1670265179
235,can tho,10.0333,105.7833,24.120000000000005,92,100,2.24,VN,1670265070
236,bihoro,43.8228,144.1044,-5.779999999999973,68,0,2.5,JP,1670265180
237,minsk,53.9,27.5667,-8.139999999999986,91,98,5.38,BY,1670265180
238,bangui,4.3612,18.555,26.05000000000001,50,32,0.95,CF,1670265183
239,bar harbor,44.3876,-68.2039,7.970000000000027,69,100,8.75,US,1670265139
240,kalaleh,37.3807,55.4916,2.7800000000000296,87,0,0.0,IR,1670265186
241,buluang,13.3068,123.3425,23.720000000000027,94,95,1.27,PH,1670265187
242,torbat-e jam,35.244,60.6225,-1.4499999999999886,71,54,0.46,IR,1670265189
243,ciudad bolivar,8.1222,-63.5497,29.720000000000027,53,100,2.33,VE,1670265190
244,mahon,39.8885,4.2658,15.310000000000002,88,20,2.06,ES,1670265191
245,tura,25.5198,90.2201,16.200000000000045,85,0,1.42,IN,1670265193
246,ballina,-28.8667,153.5667,17.79000000000002,99,1,2.21,AU,1670265193
247,sabha,27.0377,14.4283,21.140000000000043,19,0,3.38,LY,1670265194
248,matamoros,25.5333,-103.25,26.170000000000016,36,0,0.0,MX,1670265195
249,oriximina,-1.7656,-55.8661,29.53000000000003,64,76,1.78,BR,1670265196
250,hounde,11.5,-3.5167,31.010000000000048,20,100,2.64,BF,1670265197
251,codrington,-38.2667,141.9667,10.810000000000002,73,17,5.16,AU,1670265199
252,longyearbyen,78.2186,15.6401,-12.089999999999975,67,75,11.32,SJ,1670265202
253,naze,28.3667,129.4833,14.510000000000048,77,97,8.86,JP,1670265205
254,altea,38.5989,-0.0514,15.670000000000016,86,100,6.39,ES,1670265207
255,bilma,18.6853,12.9164,24.74000000000001,17,1,2.39,NE,1670265208
256,shubarkuduk,49.1447,56.4872,-12.96999999999997,97,46,2.13,KZ,1670265208
257,dauphin,51.1494,-100.0502,-21.919999999999987,64,0,1.03,CA,1670265209
258,severo-yeniseyskiy,60.3725,93.0408,-20.669999999999987,98,100,2.86,RU,1670265210
259,aykhal,66.0,111.5,-23.329999999999984,96,100,6.23,RU,1670265210
260,zhanaozen,43.3,52.8,-7.699999999999989,50,0,0.82,KZ,1670265211
261,kaitangata,-46.2817,169.8464,7.930000000000007,95,100,2.87,NZ,1670265211
262,hovd,48.0056,91.6419,-16.67999999999995,81,11,1.1,MN,1670265213
263,asfi,32.2994,-9.2372,18.360000000000014,81,8,10.0,MA,1670265213
264,iralaya,15.0,-83.2333,26.510000000000048,78,5,5.72,HN,1670265214
265,canita,9.2097,-78.8811,29.360000000000014,62,96,4.08,PA,1670265215
266,upington,-28.4478,21.2561,23.210000000000036,21,0,2.06,ZA,1670265215
267,otane,-39.8833,176.6333,14.450000000000045,81,98,1.17,NZ,1670265216
268,prince george,53.9166,-122.753,-12.310000000000002,78,100,3.09,CA,1670265050
269,colares,38.7992,-9.4469,16.29000000000002,89,40,2.24,PT,1670265217
270,tacoronte,28.4769,-16.4102,18.24000000000001,84,100,2.06,ES,1670265217
271,atikokan,48.7555,-91.6216,-11.17999999999995,68,100,4.89,CA,1670265218
272,brae,60.3964,-1.353,6.5,64,100,9.21,GB,1670265218
273,nelson bay,-32.7167,152.15,19.5,95,32,4.92,AU,1670265219
274,mabaruma,8.2,-59.7833,25.32000000000005,94,62,1.81,GY,1670265219
275,sibolga,1.7427,98.7792,23.680000000000007,91,100,1.16,ID,1670265220
276,provideniya,64.3833,-173.3,-2.5399999999999636,93,100,9.41,RU,1670265220
277,honningsvag,70.9821,25.9704,3.8600000000000136,87,100,5.66,NO,1670265221
278,chuy,-33.6971,-53.4616,25.07000000000005,52,0,4.86,UY,1670265221
279,chermen,43.1486,44.7069,-2.419999999999959,93,99,6.0,RU,1670265222
280,kodiak,57.79,-152.4072,2.730000000000018,93,100,0.0,US,1670265222
281,whyalla,-33.0333,137.5833,18.600000000000023,53,100,3.26,AU,1670265223
282,egvekinot,66.3167,-179.1667,-18.159999999999968,88,100,4.83,RU,1670265223
283,dingle,10.9995,122.6711,23.610000000000014,94,74,3.19,PH,1670265224
284,parintins,-2.6283,-56.7358,32.26000000000005,50,94,2.47,BR,1670265225
285,barcelona,41.3888,2.159,13.160000000000025,82,40,3.09,ES,1670265203
286,fort nelson,58.8053,-122.7002,-20.589999999999975,61,40,1.54,CA,1670265049
287,shamary,57.3434,58.2199,-17.639999999999986,99,58,0.73,RU,1670265226
288,yangjiang,21.85,111.9667,10.990000000000009,78,1,3.36,CN,1670265226
289,safakulevo,54.9901,62.5442,-22.20999999999998,100,92,0.78,RU,1670265227
290,at-bashi,41.1702,75.8106,-11.139999999999986,93,98,0.59,KG,1670265227
291,ossora,59.2353,163.0719,-11.759999999999991,72,100,5.78,RU,1670265193
292,gap,44.6667,6.0,-6.199999999999989,95,6,3.04,FR,1670265228
293,villa carlos paz,-31.4241,-64.4978,37.81,14,0,7.6,AR,1670265229
294,alice springs,-23.7,133.8833,20.75,30,0,0.0,AU,1670265229
295,eureka,40.8021,-124.1637,9.550000000000011,94,15,0.89,US,1670265050
296,puerto ayora,-0.7393,-90.3518,26.980000000000018,86,70,2.24,EC,1670265230
297,diffa,13.3154,12.6113,24.52000000000004,17,5,3.84,NE,1670265231
298,touros,-5.1989,-35.4608,28.30000000000001,62,16,6.54,BR,1670265217
299,panaba,21.2833,-88.2667,29.879999999999995,49,83,4.38,MX,1670265231
300,rudsar,37.1376,50.288,7.990000000000009,90,100,3.37,IR,1670265232
301,warri,5.5167,5.75,27.53000000000003,76,19,3.04,NG,1670265233
302,kintinku,-5.8833,35.2333,27.08000000000004,33,100,3.78,TZ,1670265233
303,knysna,-34.0363,23.0471,15.090000000000032,81,10,1.47,ZA,1670265234
304,celestun,20.8667,-90.4,28.210000000000036,51,95,1.87,MX,1670265234
305,ati,13.2154,18.3353,26.450000000000045,14,0,4.73,TD,1670265235
306,nanchang,28.6833,115.8833,6.550000000000011,84,100,2.65,CN,1670265236
307,lorengau,-2.0226,147.2712,25.910000000000025,80,100,1.87,PG,1670265236
308,pangnirtung,66.1451,-65.7125,-3.0,93,100,6.17,CA,1670265237
309,inirida,3.8653,-67.9239,27.840000000000032,79,93,1.6,CO,1670265237
310,artyom,40.4723,50.333,3.080000000000041,60,100,3.88,AZ,1670265238
311,poronaysk,49.2167,143.1167,-12.92999999999995,77,1,2.97,RU,1670265238
312,hofn,64.2539,-15.2082,-0.9899999999999523,86,40,2.06,IS,1670265239
313,rocha,-34.4833,-54.3333,28.939999999999998,34,0,5.35,UY,1670265088
314,valdosta,30.8327,-83.2785,23.29000000000002,71,40,2.06,US,1670265240
315,zhangye,38.9342,100.4517,-6.589999999999975,68,89,1.39,CN,1670265240
316,kangaba,11.9333,-8.4167,29.52000000000004,34,35,1.63,ML,1670265241
317,dwarka,22.2394,68.9678,23.49000000000001,43,0,5.32,IN,1670265241
318,khatanga,71.9667,102.5,-32.789999999999964,100,14,1.52,RU,1670265242
319,arraial do cabo,-22.9661,-42.0278,28.980000000000018,65,20,8.23,BR,1670265245
320,mount isa,-20.7333,139.5,18.870000000000005,59,0,0.0,AU,1670265247
321,gigmoto,13.7796,124.39,25.670000000000016,81,100,3.57,PH,1670265256
322,shahr-e babak,30.1165,55.1186,9.160000000000025,67,91,2.25,IR,1670265257
323,puli,23.9664,120.9695,17.340000000000032,81,25,1.87,TW,1670265259
324,harper,4.375,-7.7169,26.010000000000048,83,100,1.72,LR,1670265261
325,tevaitoa,-16.7833,-151.5,26.360000000000014,77,94,8.19,PF,1670265264
326,amparafaravola,-17.5833,48.2167,19.689999999999998,88,35,2.06,MG,1670265269
327,clyde river,70.4692,-68.5914,-10.870000000000005,92,100,1.54,CA,1670265163
328,san pedro,14.35,121.0167,25.57000000000005,87,20,1.03,PH,1670265271
329,bangangte,5.1409,10.5198,19.180000000000007,53,88,1.42,CM,1670265272
330,zavyalovo,54.5053,82.4484,-19.109999999999985,97,33,2.17,RU,1670265273
331,cap malheureux,-19.9842,57.6142,24.700000000000045,68,11,2.24,MU,1670265274
332,nikolskoye,59.7035,30.7861,-4.060000000000002,95,100,2.75,RU,1670265275
333,shimoda,34.6667,138.95,7.840000000000032,91,100,5.24,JP,1670265275
334,kawalu,-7.3817,108.2082,22.08000000000004,96,100,0.7,ID,1670265276
335,luz,-19.8014,-45.6856,25.620000000000005,68,100,3.3,BR,1670265276
336,tarko-sale,64.9225,77.785,-11.399999999999977,93,90,5.61,RU,1670265277
337,hachinohe,40.5,141.5,0.26000000000004775,69,2,2.7,JP,1670265278
338,xichang,27.8964,102.2634,5.710000000000036,77,0,0.5,CN,1670265278
339,mapiripan,2.8892,-72.1256,32.29000000000002,45,26,3.43,CO,1670265279
340,opuwo,-18.0607,13.84,25.629999999999995,28,22,4.65,NA,1670265279
341,manica,49.0,-1.1667,1.6400000000000432,96,90,2.09,FR,1670265280
342,tigil,57.8,158.6667,-11.519999999999982,90,100,6.99,RU,1670265280
343,sidi ali,36.0998,0.4206,18.52000000000004,42,99,3.48,DZ,1670265281
344,comodoro rivadavia,-45.8667,-67.5,24.920000000000016,25,0,10.8,AR,1670265282
345,filadelfia,39.9523,-75.1638,9.710000000000036,46,75,2.57,US,1670265035
346,komsomolskiy,40.4272,71.7189,-0.5999999999999659,86,100,3.09,UZ,1670265282
347,katsuura,35.1333,140.3,9.490000000000009,94,100,8.63,JP,1670265283
348,mazyr,52.0495,29.2456,-10.439999999999998,92,60,3.98,BY,1670265283
349,ishurdi,24.1333,89.0833,18.680000000000007,53,0,3.48,BD,1670265284
350,juybar,36.6412,52.9124,6.090000000000032,69,84,1.88,IR,1670265284
351,kamloops,50.6665,-120.3192,-9.449999999999989,73,75,2.57,CA,1670265075
352,richards bay,-28.783,32.0377,21.260000000000048,84,100,6.95,ZA,1670265285
353,corinto,37.9407,22.9573,14.379999999999995,79,70,1.18,GR,1670265286
354,baykit,61.67,96.37,-15.849999999999966,95,84,3.26,RU,1670265286
355,port-gentil,-0.7193,8.7815,27.980000000000018,83,40,4.63,GA,1670265287
356,bacolod,10.6667,122.95,24.689999999999998,86,32,3.44,PH,1670265287
357,pomabamba,-8.8333,-77.4667,17.82000000000005,36,67,3.24,PE,1670265288
358,kathu,7.9178,98.3332,28.189999999999998,87,89,4.79,TH,1670265288
359,bhimunipatnam,17.8833,83.4333,23.730000000000018,78,92,2.9,IN,1670265289
360,hervey bay,-25.2986,152.8535,21.52000000000004,85,1,4.44,AU,1670265290
361,san ignacio,17.1561,-89.0714,28.08000000000004,69,40,2.06,BZ,1670265290
362,kaeo,-35.1,173.7833,16.08000000000004,88,100,1.73,NZ,1670265291
363,jiangkou,25.4872,119.1986,13.270000000000039,75,100,7.18,CN,1670265291
364,cheyenne,41.14,-104.8203,5.610000000000014,49,0,15.43,US,1670265292
365,vila velha,-20.3297,-40.2925,26.970000000000027,77,40,7.2,BR,1670265293
366,san quintin,30.4833,-115.95,18.840000000000032,71,0,7.96,MX,1670265293
367,flagstaff,35.1981,-111.6513,8.640000000000043,64,100,5.14,US,1670265294
368,kroonstad,-27.6504,27.2349,19.08000000000004,30,0,2.93,ZA,1670265295
369,gat,31.61,34.7642,17.439999999999998,100,4,1.72,IL,1670265063
370,killybegs,54.6333,-8.45,5.840000000000032,83,51,5.03,IE,1670265295
371,rantoul,40.3084,-88.1559,6.010000000000048,70,100,2.57,US,1670265296
372,tahta,26.7693,31.5021,17.840000000000032,48,0,5.8,EG,1670265297
373,yumen,40.2833,97.2,-9.569999999999993,89,100,1.31,CN,1670265297
374,mahebourg,-20.4081,57.7,25.160000000000025,73,40,4.63,MU,1670265298
375,chute-aux-outardes,49.1168,-68.399,-0.009999999999990905,74,100,6.69,CA,1670265299
376,xingcheng,40.6167,120.7167,-4.329999999999984,33,52,3.29,CN,1670265300
377,goderich,43.7501,-81.7165,4.390000000000043,60,100,7.2,CA,1670265092
378,bulaevo,54.9056,70.4439,-21.18999999999997,100,29,0.6,KZ,1670265301
379,nanyamba,-10.6833,39.8333,22.07000000000005,97,13,2.39,TZ,1670265301
380,xuzhou,34.1805,117.1571,2.160000000000025,54,0,1.01,CN,1670265302
381,sao joao da barra,-21.6403,-41.0511,28.05000000000001,81,75,8.45,BR,1670265303
382,port-cartier,50.0334,-66.8654,-1.8100000000000023,95,100,5.64,CA,1670265304
383,quatre cocos,-20.2078,57.7625,25.060000000000002,76,17,5.75,MU,1670265306
384,namibe,-15.1961,12.1522,21.620000000000005,76,4,2.77,AO,1670265308
385,agadez,19.75,10.25,24.110000000000014,18,100,3.19,NE,1670265311
386,lieksa,63.3167,30.0167,-4.519999999999982,90,100,6.16,FI,1670265314
387,gorontalo,0.5412,123.0595,23.640000000000043,93,100,1.12,ID,1670265315
388,joao pinheiro,-17.7425,-46.1725,25.410000000000025,63,100,2.16,BR,1670265316
389,orlik,52.5178,99.825,-27.629999999999967,86,64,1.27,RU,1670265318
390,thinadhoo,0.5333,72.9333,27.420000000000016,74,100,2.47,MV,1670265319
391,asilah,35.465,-6.0348,14.980000000000018,81,100,13.13,MA,1670265325
392,consett,54.854,-1.8316,4.640000000000043,86,77,3.44,GB,1670265326
393,salekhard,66.53,66.6019,-15.989999999999952,94,22,2.37,RU,1670265334
394,acapulco,16.8634,-99.8901,29.900000000000034,70,0,3.6,MX,1670265334
395,bayir,37.2687,28.2167,9.29000000000002,81,3,1.76,TR,1670265335
396,duku,11.2361,4.9073,27.55000000000001,16,13,3.07,NG,1670265336
397,pak phanang,8.3511,100.202,25.80000000000001,87,100,3.67,TH,1670265336
398,leh,34.1667,77.5833,-7.909999999999968,45,50,0.98,IN,1670265337
399,avera,33.194,-82.5271,10.770000000000039,92,100,2.51,US,1670265337
400,liverpool,53.4106,-2.9779,6.300000000000011,84,40,5.14,GB,1670265338
401,pacific grove,36.6177,-121.9166,14.480000000000018,82,75,4.47,US,1670265338
402,anori,-3.7728,-61.6442,30.210000000000036,63,96,1.2,BR,1670265339
403,skaerbaek,55.1573,8.769,3.2700000000000387,83,100,5.98,DK,1670265339
404,quchan,37.106,58.5095,-2.579999999999984,73,5,0.95,IR,1670265340
405,louis trichardt,-23.0439,29.9032,19.810000000000002,84,100,3.57,ZA,1670265340
406,itarema,-2.9248,-39.9167,28.610000000000014,66,8,8.8,BR,1670265341
407,karratha,-20.7377,116.8463,27.730000000000018,44,1,6.6,AU,1670265341
408,panlaitan,12.1191,119.8486,27.49000000000001,78,94,1.41,PH,1670265342
409,zhelyabovka,45.3988,34.7578,2.580000000000041,73,100,5.86,UA,1670265342
410,jiaocheng,24.6774,116.1389,8.960000000000036,83,100,1.64,CN,1670265343
411,meulaboh,4.1363,96.1285,23.379999999999995,93,100,1.99,ID,1670265343
412,salalah,17.0151,54.0924,26.05000000000001,44,20,2.57,OM,1670265344
413,effium,6.6292,8.0593,29.160000000000025,27,7,0.91,NG,1670265345
414,spata,37.9616,23.9151,13.970000000000027,79,20,2.68,GR,1670265345
415,zurrieq,35.8311,14.4742,15.54000000000002,88,20,1.03,MT,1670265346
416,warrnambool,-38.3833,142.4833,12.57000000000005,70,97,5.76,AU,1670265347
417,san policarpo,12.1791,125.5072,26.57000000000005,76,100,4.55,PH,1670265347
418,itoman,26.1247,127.6694,19.010000000000048,92,75,10.8,JP,1670265348
419,staunton,38.1496,-79.0717,9.110000000000014,50,0,3.6,US,1670265196
420,aswan,24.0934,32.907,20.610000000000014,45,0,3.6,EG,1670265349
421,noo,58.2756,26.5375,-4.979999999999961,93,100,2.57,EE,1670265349
422,khetia,21.6667,74.5833,24.230000000000018,50,6,2.75,IN,1670265350
423,zavallya,48.2135,30.0156,-4.089999999999975,73,68,4.11,UA,1670265351
424,forestville,38.8451,-76.875,10.170000000000016,49,0,5.14,US,1670265068
425,koumac,-20.5667,164.2833,24.680000000000007,92,100,3.34,NC,1670265352
426,upata,8.0086,-62.3989,26.77000000000004,72,98,1.71,VE,1670265353
427,pampa,35.5362,-100.9599,22.02000000000004,37,0,4.63,US,1670265173
428,maputo,-25.9653,32.5892,24.82000000000005,83,100,3.09,MZ,1670265353
429,seoul,37.5683,126.9778,-0.3100000000000023,63,0,2.57,KR,1670265133
430,dunedin,-45.8742,170.5036,10.450000000000045,90,100,5.81,NZ,1670265354
431,ulaangom,49.9811,92.0667,-27.089999999999975,89,15,1.39,MN,1670265168
432,rio grande,-32.035,-52.0986,30.060000000000002,74,0,5.37,BR,1670265355
433,champerico,14.3,-91.9167,32.30000000000001,72,1,2.88,GT,1670265356
434,luderitz,-26.6481,15.1594,16.939999999999998,65,2,11.19,NA,1670265356
435,iquique,-20.2208,-70.1431,20.02000000000004,64,23,3.87,CL,1670265089
436,cabedelo,-6.9811,-34.8339,29.370000000000005,70,28,6.49,BR,1670265357
437,keti bandar,24.1447,67.4497,23.470000000000027,62,0,3.7,PK,1670265357
438,azanka,58.0401,64.7893,-21.24999999999997,100,69,1.22,RU,1670265358
439,oktyabrskoye,43.0645,44.7417,-2.919999999999959,93,100,5.0,RU,1670265358
440,marrakesh,31.6315,-8.0083,17.04000000000002,63,40,6.17,MA,1670265162
441,arcos,-20.2819,-45.5394,24.100000000000023,76,100,3.61,BR,1670265160
442,quesada,10.3238,-84.4271,28.730000000000018,68,43,3.39,CR,1670265360
443,erenhot,43.6475,111.9767,-12.489999999999952,59,0,5.06,CN,1670265360
444,severodvinsk,64.5635,39.8302,-8.939999999999998,91,72,4.61,RU,1670265361
445,campbell river,50.0163,-125.2446,2.4700000000000273,100,100,1.54,CA,1670265361
446,houlton,46.1262,-67.8403,4.78000000000003,56,20,5.14,US,1670265362
447,lavrentiya,65.5833,-171.0,-4.769999999999982,90,100,2.89,RU,1670265364
448,bay roberts,47.5999,-53.2648,5.590000000000032,94,100,0.45,CA,1670265366
449,winslow,35.0242,-110.6974,15.100000000000023,47,40,6.69,US,1670265367
450,great yarmouth,52.6083,1.7305,7.230000000000018,73,100,8.46,GB,1670265140
451,nerchinskiy zavod,51.3088,119.61,-17.389999999999986,94,100,2.13,RU,1670265369
452,high level,58.5169,-117.136,-23.93999999999997,64,20,6.17,CA,1670265370
453,nome,64.5011,-165.4064,-0.9599999999999795,80,100,4.63,US,1670265213
454,cururupu,-1.8283,-44.8683,29.010000000000048,65,45,3.54,BR,1670265374
455,pulong gubat,14.8667,120.9,26.170000000000016,84,79,2.02,PH,1670265375
456,antofagasta,-23.65,-70.4,19.600000000000023,62,1,4.19,CL,1670265378
457,rosetta,31.4044,30.4164,18.590000000000032,69,96,5.76,EG,1670265380
458,zhuhai,22.2769,113.5678,14.840000000000032,77,40,10.29,CN,1670265381
459,beringovskiy,63.05,179.3167,-0.2599999999999909,98,100,18.7,RU,1670265383
460,hohhot,40.8106,111.6522,-17.839999999999975,65,0,2.0,CN,1670265394
461,samarai,-10.6167,150.6667,26.850000000000023,76,69,2.81,PG,1670265395
462,zhigansk,66.7697,123.3711,-28.379999999999967,98,100,0.33,RU,1670265396
463,russell,32.3502,-85.1999,20.600000000000023,72,20,2.06,US,1670265396
464,brigantine,39.4101,-74.3646,9.450000000000045,52,0,2.06,US,1670265397
465,adet,11.2644,37.4888,16.79000000000002,39,100,2.15,ET,1670265397
466,terrace bay,48.7834,-87.1,-4.75,74,100,5.52,CA,1670265398
467,lethem,3.3803,-59.7968,31.03000000000003,62,75,6.17,GY,1670265398
468,sao domingos do maranhao,-5.5758,-44.3853,27.180000000000007,72,99,2.53,BR,1670265399
469,boyolangu,-8.1181,111.8935,24.160000000000025,91,100,0.56,ID,1670265399
470,arai,37.0167,138.25,4.400000000000034,78,68,1.68,JP,1670265400
471,marsa matruh,31.3525,27.2453,16.110000000000014,77,0,1.54,EG,1670265401
472,kavaratti,10.5669,72.642,27.879999999999995,73,10,2.0,IN,1670265401
473,coaraci,-14.6408,-39.5511,25.120000000000005,64,100,2.62,BR,1670265401
474,geraldton,-28.7667,114.6,20.230000000000018,77,100,6.17,AU,1670265402
475,mosalsk,54.4881,34.9817,-10.819999999999993,91,100,2.86,RU,1670265402
476,aksarka,66.5606,67.7975,-15.45999999999998,94,19,3.19,RU,1670265403
477,pauca,46.0167,23.9,6.180000000000007,80,100,0.74,RO,1670265404
478,quelimane,-17.8786,36.8883,27.970000000000027,78,20,3.6,MZ,1670265404
479,kifri,34.6959,44.9661,15.010000000000048,48,10,1.58,IQ,1670265404
480,tamano,34.4833,133.95,5.0,59,5,5.85,JP,1670265405
481,vanimo,-2.6741,141.3028,25.660000000000025,89,100,2.53,PG,1670265405
482,howard springs,-12.497,131.047,28.950000000000045,81,100,0.98,AU,1670265406
483,bera,24.0833,89.6167,19.82000000000005,62,0,4.02,BD,1670265406
484,boende,-0.2167,20.8667,21.04000000000002,95,56,1.59,CD,1670265407
485,ituiutaba,-18.9689,-49.465,30.420000000000016,45,96,3.52,BR,1670265407
486,zima,53.9202,102.0442,-9.479999999999961,62,100,6.1,RU,1670265408
487,kenora,49.8167,-94.4337,-17.349999999999966,71,75,4.12,CA,1670265408
488,ambovombe,-25.1667,46.0833,24.680000000000007,80,9,4.55,MG,1670265409
489,shahrud,36.4182,54.9763,-0.08999999999997499,68,7,2.03,IR,1670265409
490,great falls,47.5002,-111.3008,-4.769999999999982,93,100,3.6,US,1670265241
491,mae hong son,19.3003,97.9685,20.430000000000007,91,97,0.85,TH,1670265410
492,tokur,53.1333,132.9,-24.369999999999976,99,100,1.88,RU,1670265411
493,san jose,37.3394,-121.895,14.900000000000034,89,75,4.47,US,1670265410
494,la ronge,55.1001,-105.2842,-25.859999999999985,64,75,2.06,CA,1670265411
495,westport,41.1415,-73.3579,9.379999999999995,42,0,2.57,US,1670265386
496,yagodnoye,62.55,149.6667,-44.01999999999998,99,19,2.03,RU,1670265412
497,skovorodino,53.9833,123.9167,-26.75999999999999,100,71,0.55,RU,1670265412
498,moranbah,-22.0016,148.0466,21.33000000000004,75,0,3.24,AU,1670265413
499,necochea,-38.5473,-58.7368,34.170000000000016,28,2,4.55,AR,1670265413
500,biloela,-24.4167,150.5,18.5,90,0,1.12,AU,1670265372
501,cascais,38.6979,-9.4215,16.390000000000043,90,40,2.24,PT,1670265414
502,cam ranh,11.9214,109.1591,23.980000000000018,94,75,2.06,VN,1670265415
503,kabanjahe,3.1001,98.4908,17.160000000000025,98,99,1.58,ID,1670265415
504,abu kamal,34.4506,40.9171,15.230000000000018,58,5,1.46,SY,1670265415
505,ust-kuyga,70.0167,135.6,-30.20999999999998,100,100,2.01,RU,1670265416
506,roblin,51.23,-101.3565,-25.039999999999964,93,80,3.88,CA,1670265416
507,dzaoudzi,-12.7887,45.2699,23.939999999999998,94,75,4.12,YT,1670265417
508,gamba,-2.65,10.0,25.600000000000023,91,100,2.68,GA,1670265417
509,sechura,-5.5569,-80.8222,26.140000000000043,53,15,6.92,PE,1670265418
510,taksimo,56.3444,114.8794,-16.0,97,100,1.77,RU,1670265418
511,san cristobal,7.7669,-72.225,21.100000000000023,61,54,1.61,VE,1670265419
512,bermejo,-32.8833,-68.8,36.950000000000045,14,20,7.2,AR,1670265419
513,bara,10.3744,10.7288,24.260000000000048,18,11,3.37,NG,1670265420
514,isangel,-19.55,169.2667,24.060000000000002,88,23,1.54,VU,1670265420
515,spassk-ryazanskiy,54.4072,40.3806,-10.579999999999984,85,79,2.57,RU,1670265421
516,lagos,6.5833,3.75,29.180000000000007,83,41,3.11,NG,1670265276
517,mogadishu,2.0371,45.3438,27.100000000000023,75,15,7.35,SO,1670265422
518,innisfail,-17.5333,146.0333,21.310000000000002,76,0,2.07,AU,1670265423
519,byron bay,-28.65,153.6167,17.75,89,3,2.54,AU,1670265205
520,weligama,5.9667,80.4167,24.27000000000004,88,100,0.51,LK,1670265425
521,amga,60.8953,131.9608,-27.389999999999986,98,100,1.46,RU,1670265427
522,ambon,-3.6954,128.1814,25.689999999999998,15,40,3.09,ID,1670265428
523,atar,20.5169,-13.0499,25.600000000000023,18,0,1.94,MR,1670265431
524,san joaquin,37.9333,-121.3011,15.550000000000011,66,0,2.06,US,1670265433
525,luau,-10.7073,22.2247,19.24000000000001,90,99,1.95,AO,1670265434
526,mont-dore,-22.2833,166.5833,26.670000000000016,99,100,2.17,NC,1670265436
527,grimshaw,56.1834,-117.6027,-20.20999999999998,59,40,10.29,CA,1670265437
528,marabba,12.35,32.1833,29.310000000000002,26,78,5.8,SD,1670265438
529,kalmunai,7.4167,81.8167,24.30000000000001,89,100,3.16,LK,1670265439
530,phalaborwa,-23.943,31.1411,24.25,64,100,3.29,ZA,1670265441
531,teplodar,46.5059,30.3252,-0.7999999999999545,78,100,4.62,UA,1670265442
532,katobu,-4.9408,122.5276,23.420000000000016,94,99,1.01,ID,1670265444
533,beyneu,45.3167,55.2,-6.060000000000002,67,100,4.34,KZ,1670265445
534,fonte boa,-2.4959,-66.2662,29.350000000000023,66,100,1.51,BR,1670265446
535,sorong,-0.8833,131.25,25.879999999999995,85,100,2.49,ID,1670265449
536,chicama,-7.8447,-79.1469,20.30000000000001,55,8,5.61,PE,1670265451
537,siva,29.2041,25.5195,17.629999999999995,54,0,1.95,EG,1670265452
538,mstera,56.3789,41.92,-11.099999999999966,89,99,2.59,RU,1670265452
539,loiza,18.4313,-65.8802,28.370000000000005,68,40,4.12,PR,1670265453
540,montanha,-18.1269,-40.3633,25.840000000000032,67,100,4.95,BR,1670265454
541,san pedro de macoris,18.4616,-69.2972,29.340000000000032,67,0,5.95,DO,1670265454
542,vilhena,-12.7406,-60.1458,26.120000000000005,78,75,3.09,BR,1670265455
543,tautira,-17.7333,-149.15,25.629999999999995,80,37,6.89,PF,1670265455
544,bijapur,16.8333,75.7,22.0,42,97,4.48,IN,1670265456
545,neiafu,-18.65,-173.9833,24.379999999999995,94,40,0.0,TO,1670265456
546,amapa,1.0,-52.0,24.960000000000036,83,100,0.84,BR,1670265457
547,acarau,-2.8856,-40.12,28.860000000000014,65,7,9.5,BR,1670265457
548,borgarnes,64.5383,-21.9206,-1.7699999999999818,77,12,2.22,IS,1670265458
549,bykovo,55.6361,38.0803,-9.689999999999998,92,0,2.0,RU,1670265458
550,pisco,-13.7,-76.2167,22.03000000000003,73,75,4.63,PE,1670265459
551,caravelas,-17.7125,-39.2481,25.840000000000032,70,100,3.92,BR,1670265459
552,valparaiso,-33.0393,-71.6273,21.129999999999995,87,0,5.14,CL,1670265460
553,capaci,38.1711,13.2393,16.78000000000003,45,0,1.54,IT,1670265460
554,aitape,-3.1374,142.3475,24.860000000000014,92,100,1.95,PG,1670265461
555,barra do garcas,-15.89,-52.2567,30.32000000000005,58,40,3.09,BR,1670265461
556,inongo,-1.95,18.2667,22.400000000000034,87,91,1.08,CD,1670265462
557,parry sound,45.3501,-80.033,4.03000000000003,65,100,6.37,CA,1670265329
558,atagay,55.1033,99.3875,-10.339999999999975,58,100,6.08,RU,1670265463
559,hangu,39.2489,117.7892,-1.9799999999999613,38,0,3.48,CN,1670265463
560,gualeguaychu,-33.0094,-58.5172,39.97000000000003,11,0,4.36,AR,1670265464
561,naryan-mar,67.6713,53.087,-14.70999999999998,86,100,6.14,RU,1670265189
562,kroya,-7.6331,109.2461,24.30000000000001,91,100,0.72,ID,1670265464
563,flinders,-34.5833,150.8552,15.770000000000039,90,48,3.18,AU,1670265465
564,tyret pervaya,53.6703,102.3106,-10.060000000000002,64,100,6.88,RU,1670265465
565,biak,-0.9131,122.8766,24.110000000000014,82,100,1.4,ID,1670265466
566,porto novo,6.4965,2.6036,27.900000000000034,80,70,3.95,BJ,1670265466
567,fairbanks,64.8378,-147.7164,-10.779999999999973,86,75,0.0,US,1670265300
568,lipin bor,60.2622,37.9763,-7.96999999999997,95,99,3.47,RU,1670265467
569,zacualtipan,20.65,-98.6,20.55000000000001,50,2,2.37,MX,1670265468
570,moree,-29.4667,149.85,21.379999999999995,33,82,3.27,AU,1670265468
571,binga,-17.6203,27.3414,28.200000000000045,38,5,1.36,ZW,1670265469
572,pindushi,62.9152,34.58,-7.3700000000000045,94,100,3.58,RU,1670265469
573,harindanga,22.0383,88.3214,19.08000000000004,39,5,3.37,IN,1670265469
